[
  {
    "Id": "51f0d278-2057-404e-83f9-a3e7453edc5e",
    "Department": "Bazetta Township Fire Department",
    "Station": "Station 11",
    "Address": "773 Everett Hull Road",
    "City": "Cortland",
    "JurisdictionType": "Township",
    "State": "OH",
    "ZipCode": 44410,
    "Latitude": 41.330204,
    "Longitude": -80.793323
  },
  {
    "Id": "c29b1487-cf30-473b-b59c-bed0c3d26d35",
    "Department": "Bazetta Township Fire Department",
    "Station": "Station 13",
    "Address": "2872 McCleary Jacoby Road",
    "City": "Cortland",
    "JurisdictionType": "Township",
    "State": "OH",
    "ZipCode": 44410,
    "Latitude": 41.296908,
    "Longitude": -80.741285
  },
  {
    "Id": "8e977c13-890c-41ea-9db3-cee4e900e60a",
    "Department": "Bloomfield Township Fire Department",
    "Station": "Main Station",
    "Address": "8870 Park Avenue",
    "City": "North Bloomfield",
    "JurisdictionType": "Township",
    "State": "OH",
    "ZipCode": 44450,
    "Latitude": 41.479869,
    "Longitude": -80.810686
  },
  {
    "Id": "1b46daab-a3d7-4b37-a77b-97175a4ca2f0",
    "Department": "Bloomfield Township Volunteer Fire Department",
    "Station": "Station 15",
    "Address": "8832 Park Drive",
    "City": "Orwell",
    "JurisdictionType": "Township",
    "State": "OH",
    "ZipCode": 44076,
    "Latitude": 41.462479,
    "Longitude": -80.866425
  },
  {
    "Id": "00f0e42d-0225-45cf-9484-c58fc8e5c58d",
    "Department": "Braceville Township Fire Department",
    "Station": "Station A",
    "Address": "800 Newton Falls Braceville Road",
    "City": "Newton Falls",
    "JurisdictionType": "Township",
    "State": "OH",
    "ZipCode": 44444,
    "Latitude": 41.095028,
    "Longitude": -80.925156
  },
  {
    "Id": "efc567f4-97b6-4dda-b239-82fd1176c14b",
    "Department": "Braceville Township Fire Department",
    "Station": "Station B",
    "Address": "582 Newton Falls Braceville Road",
    "City": "Newton Falls",
    "JurisdictionType": "Township",
    "State": "OH",
    "ZipCode": 44444,
    "Latitude": 41.100197,
    "Longitude": -80.925174
  },
  {
    "Id": "e42bca68-166d-45c3-a537-65e164a09ce3",
    "Department": "Bristol Fire Department",
    "Station": "Main Station",
    "Address": "1864 Greenville Road NW",
    "City": "Bristolville",
    "JurisdictionType": "Township",
    "State": "OH",
    "ZipCode": 44402,
    "Latitude": 41.387262,
    "Longitude": -80.858382
  },
  {
    "Id": "e8902de3-585a-4323-b235-9f9e6992262e",
    "Department": "Brookfield Township Fire Department",
    "Station": "Station 18",
    "Address": "774 Ohio 7",
    "City": "Brookfield Center",
    "JurisdictionType": "Township",
    "State": "OH",
    "ZipCode": 44403,
    "Latitude": 41.221567,
    "Longitude": -80.568092
  },
  {
    "Id": "2b860ec9-c150-4ce7-91f0-239d4528988d",
    "Department": "Burghill-Vernon Volunteer Fire Department",
    "Station": "Station 19",
    "Address": "6915 Ohio 88",
    "City": "Kinsman",
    "JurisdictionType": "Township",
    "State": "OH",
    "ZipCode": 44428,
    "Latitude": 41.387182,
    "Longitude": -80.568532
  },
  {
    "Id": "cbefdce6-94b7-4032-8a8b-b0a8467b8967",
    "Department": "Champion Township Fire Department",
    "Station": "Main Station",
    "Address": "5759 Mahoning Avenue NW",
    "City": "Warren",
    "JurisdictionType": "Township",
    "State": "OH",
    "ZipCode": 44483,
    "Latitude": 41.309881,
    "Longitude": -80.850247
  },
  {
    "Id": "360f77c1-6308-419e-9f2a-b5d546913b91",
    "Department": "Cortland City Fire Department",
    "Station": "Main Station",
    "Address": "400 N High Street",
    "City": "Cortland",
    "JurisdictionType": "City",
    "State": "OH",
    "ZipCode": 44410,
    "Latitude": 41.338256,
    "Longitude": -80.723489
  },
  {
    "Id": "0980b948-4bde-4eac-bec6-04d8e23f2978",
    "Department": "Eagle Joint Fire District (Newton Falls)",
    "Station": "Main Station",
    "Address": "52 Quarry Street",
    "City": "Newton Falls",
    "JurisdictionType": "Joint District",
    "State": "OH",
    "ZipCode": 44444,
    "Latitude": 41.184518,
    "Longitude": -80.976928
  },
  {
    "Id": "1c0cc671-fab4-4580-aab3-c7ef277a2232",
    "Department": "Farmington Township Volunteer Fire Department",
    "Station": "Main Station",
    "Address": "State Route 534",
    "City": "Farmington",
    "JurisdictionType": "Township",
    "State": "OH",
    "ZipCode": 44491,
    "Latitude": 41.370456,
    "Longitude": -81.043183
  },
  {
    "Id": "8604fe9e-7fb2-453a-a1bf-8ce78a627256",
    "Department": "Fowler Township Fire Department (Hartford)",
    "Station": "Main Station",
    "Address": "6959 Ohio 305",
    "City": "Fowler",
    "JurisdictionType": "Township",
    "State": "OH",
    "ZipCode": 44418,
    "Latitude": 41.311701,
    "Longitude": -80.573912
  },
  {
    "Id": "280b6cc7-a3eb-4e49-9f32-f8d8e2825cfe",
    "Department": "Girard Fire Department",
    "Station": "Main Station",
    "Address": "100 W Main Street",
    "City": "Girard",
    "JurisdictionType": "City",
    "State": "OH",
    "ZipCode": 44420,
    "Latitude": 41.155527,
    "Longitude": -80.703711
  },
  {
    "Id": "c8bd4638-0b93-4266-93e2-6b65d0b0fd58",
    "Department": "Greene Township Volunteer Fire Department",
    "Station": "Main Station",
    "Address": "5500 Hoagland Blackstub Road",
    "City": "Cortland",
    "JurisdictionType": "Township",
    "State": "OH",
    "ZipCode": 44410,
    "Latitude": 41.385849,
    "Longitude": -80.776856
  },
  {
    "Id": "18e6d927-9307-46f8-9581-c526ac366372",
    "Department": "Gustavus Volunteer Fire Department",
    "Station": "Main Station",
    "Address": "4030 Route 87",
    "City": "Gustavus",
    "JurisdictionType": "Township",
    "State": "OH",
    "ZipCode": 44491,
    "Latitude": 41.462099,
    "Longitude": -80.676451
  },
  {
    "Id": "79df7134-456c-4956-af55-6a0d9f0d4dbc",
    "Department": "Hartford Township Volunteer Fire Department",
    "Station": "Main Station",
    "Address": "6959 Ohio 305",
    "City": "Fowler",
    "JurisdictionType": "Township",
    "State": "OH",
    "ZipCode": 44418,
    "Latitude": 41.311701,
    "Longitude": -80.573912
  },
  {
    "Id": "90cd5fcc-338e-430f-97ac-0312e1bfe177",
    "Department": "Howland Township Fire Department",
    "Station": "Station 30",
    "Address": "169 Niles Cortland Road NE",
    "City": "Warren",
    "JurisdictionType": "Township",
    "State": "OH",
    "ZipCode": 44484,
    "Latitude": 41.239289,
    "Longitude": -80.740718
  },
  {
    "Id": "568788be-5b2d-4d0b-963a-b81518db9cab",
    "Department": "Howland Township Fire Department",
    "Station": "Station 31",
    "Address": "3403 Ridge Road",
    "City": "Warren",
    "JurisdictionType": "Township",
    "State": "OH",
    "ZipCode": 44484,
    "Latitude": 41.209231,
    "Longitude": -80.781418
  },
  {
    "Id": "33b27689-14ce-4b02-8670-6d4d03d7defb",
    "Department": "Howland Township Fire Department",
    "Station": "Station 32",
    "Address": "2180 Wilson Avenue NE",
    "City": "Warren",
    "JurisdictionType": "Township",
    "State": "OH",
    "ZipCode": 44484,
    "Latitude": 41.258466,
    "Longitude": -80.787903
  },
  {
    "Id": "3436da4e-5dc1-4808-9acd-9a7308281803",
    "Department": "Hubbard Volunteer Fire Department",
    "Station": "Main Station",
    "Address": "33 W Liberty Street",
    "City": "Hubbard",
    "JurisdictionType": "City",
    "State": "OH",
    "ZipCode": 44425,
    "Latitude": 41.156272,
    "Longitude": -80.569797
  },
  {
    "Id": "b9594d5e-146d-484e-973d-3699f11ee050",
    "Department": "Johnston Volunteer Fire Department",
    "Station": "Station 29",
    "Address": "4424 Greenville Road NE",
    "City": "Farmdale",
    "JurisdictionType": "Township",
    "State": "OH",
    "ZipCode": 44417,
    "Latitude": 41.388656,
    "Longitude": -80.659748
  },
  {
    "Id": "5f89c58b-1bf4-4fc6-a3e4-caaa2e6dc3e0",
    "Department": "Kinsman Volunteer Fire Department",
    "Station": "Main Station",
    "Address": "8450 Ridge Road",
    "City": "Kinsman",
    "JurisdictionType": "Township",
    "State": "OH",
    "ZipCode": 44428,
    "Latitude": 41.451822,
    "Longitude": -80.586506
  },
  {
    "Id": "e921233e-f58a-4a71-846d-4ed36212a0d4",
    "Department": "Liberty Township Fire Department",
    "Station": "Station 2",
    "Address": "5920 Belmont Avenue",
    "City": "Youngstown",
    "JurisdictionType": "Township",
    "State": "OH",
    "ZipCode": 44505,
    "Latitude": 41.182229,
    "Longitude": -80.66458
  },
  {
    "Id": "1fe2de33-de02-4a54-92cc-e9276fc00b1d",
    "Department": "Liberty Township Fire Department",
    "Station": "Station 35",
    "Address": "4001 Logan Way",
    "City": "Youngstown",
    "JurisdictionType": "Township",
    "State": "OH",
    "ZipCode": 44505,
    "Latitude": 41.154915,
    "Longitude": -80.631608
  },
  {
    "Id": "8187ae27-163b-419d-b425-f334447fb2c9",
    "Department": "Lordstown Village Fire Department",
    "Station": "Main Station",
    "Address": "1595 Salt Springs Road",
    "City": "Warren",
    "JurisdictionType": "Village",
    "State": "OH",
    "ZipCode": 44481,
    "Latitude": 41.165779,
    "Longitude": -80.854937
  },
  {
    "Id": "7cd25c20-ece5-45dd-a41f-f7335310cfc5",
    "Department": "McDonald Fire Department",
    "Station": "Main Station",
    "Address": "451 Ohio Avenue",
    "City": "McDonald",
    "JurisdictionType": "Village",
    "State": "OH",
    "ZipCode": 44437,
    "Latitude": 41.163543,
    "Longitude": -80.723552
  },
  {
    "Id": "c38fb304-000d-4c75-b056-dd34b4f3a00b",
    "Department": "Mecca Township Volunteer Fire Department",
    "Station": "Main Station",
    "Address": "1100 State Route 46",
    "City": "Cortland",
    "JurisdictionType": "Township",
    "State": "OH",
    "ZipCode": 44410,
    "Latitude": 41.290967,
    "Longitude": -80.866245
  },
  {
    "Id": "d76fc75a-286e-40fa-9624-f173b0d6711a",
    "Department": "Mesopotamia Fire Department",
    "Station": "Main Station",
    "Address": "8584 State Route 534",
    "City": "Mesopotamia",
    "JurisdictionType": "Township",
    "State": "OH",
    "ZipCode": 44439,
    "Latitude": 41.448554,
    "Longitude": -80.955108
  },
  {
    "Id": "3cc0867f-4529-4baf-9046-34150055e588",
    "Department": "Newton Falls Joint Fire District",
    "Station": "Main Station",
    "Address": "52 Quarry Street",
    "City": "Newton Falls",
    "JurisdictionType": "Joint District",
    "State": "OH",
    "ZipCode": 44444,
    "Latitude": 41.184518,
    "Longitude": -80.976928
  },
  {
    "Id": "e4c48a6c-ffb2-4576-9263-f8ab169edfe6",
    "Department": "Niles Fire Department",
    "Station": "Station 7",
    "Address": "15 East State Street SE",
    "City": "Niles",
    "JurisdictionType": "City",
    "State": "OH",
    "ZipCode": 44446,
    "Latitude": 41.178972,
    "Longitude": -80.764371
  },
  {
    "Id": "f1c3e748-cd23-46b2-b9e7-39a53a680117",
    "Department": "Niles Fire Department",
    "Station": "Station 8",
    "Address": "1235 Niles Cortland Road",
    "City": "Niles",
    "JurisdictionType": "City",
    "State": "OH",
    "ZipCode": 44446,
    "Latitude": 41.197129,
    "Longitude": -80.746324
  },
  {
    "Id": "93078539-fa01-412b-87cc-f6d983dd61f5",
    "Department": "Orangeville Volunteer Fire Department",
    "Station": "Main Station",
    "Address": "5985 Orangeville Kinsman Road",
    "City": "Orangeville",
    "JurisdictionType": "Village",
    "State": "OH",
    "ZipCode": 44453,
    "Latitude": 41.32519,
    "Longitude": -80.533572
  },
  {
    "Id": "7f2dd991-09e4-46f0-9e2b-e03b6ba13caf",
    "Department": "Southington Volunteer Fire Department",
    "Station": "Main Station",
    "Address": "4361 Ohio 305",
    "City": "Southington",
    "JurisdictionType": "Township",
    "State": "OH",
    "ZipCode": 44470,
    "Latitude": 41.308585,
    "Longitude": -80.94824
  },
  {
    "Id": "1aa1373d-95e0-40a5-b75b-69285b62995a",
    "Department": "Vienna Township Fire Department",
    "Station": "Main Station",
    "Address": "833 Youngstown Kingsville Road",
    "City": "Vienna Center",
    "JurisdictionType": "Township",
    "State": "OH",
    "ZipCode": 44473,
    "Latitude": 41.24033,
    "Longitude": -80.663968
  },
  {
    "Id": "5624c57f-13af-48fa-8e7f-8e17421ec673",
    "Department": "Warren City Fire Department",
    "Station": "Station 1",
    "Address": "111 South Street SE",
    "City": "Warren",
    "JurisdictionType": "City",
    "State": "OH",
    "ZipCode": 44483,
    "Latitude": 41.234207,
    "Longitude": -80.817652
  },
  {
    "Id": "1db17c62-d16b-4242-84fd-991834e295a8",
    "Department": "Warren City Fire Department",
    "Station": "Atlantic Street Station",
    "Address": "1600 Atlantic Street NE",
    "City": "Warren",
    "JurisdictionType": "City",
    "State": "OH",
    "ZipCode": 44483,
    "Latitude": 41.245846,
    "Longitude": -80.795407
  },
  {
    "Id": "22c35c52-9c77-478b-8233-9e8906d948db",
    "Department": "Warren City Fire Department",
    "Station": "Parkman Road Station",
    "Address": "2454 Parkman Road NW",
    "City": "Warren",
    "JurisdictionType": "City",
    "State": "OH",
    "ZipCode": 44485,
    "Latitude": 41.251459,
    "Longitude": -80.854213
  },
  {
    "Id": "84346049-a63b-4358-af41-9c7d34a3169e",
    "Department": "Warren Township Fire Department",
    "Station": "Station 3",
    "Address": "979 Dover Avenue SW",
    "City": "Warren",
    "JurisdictionType": "Township",
    "State": "OH",
    "ZipCode": 44485,
    "Latitude": 41.2153,
    "Longitude": -80.831414
  },
  {
    "Id": "32df2161-2576-4b30-b331-8ed3e49c8edd",
    "Department": "Warren Township Fire Department",
    "Station": "Station 47",
    "Address": "4750 West Market Street",
    "City": "Leavittsburg",
    "JurisdictionType": "Township",
    "State": "OH",
    "ZipCode": 44430,
    "Latitude": 41.240025,
    "Longitude": -80.878082
  },
  {
    "Id": "10424640-ef8b-4e80-a9cd-ecd524f13e1c",
    "Department": "Weathersfield Township Fire Rescue",
    "Station": "Main Station",
    "Address": "1451 Prospect Street",
    "City": "Mineral Ridge",
    "JurisdictionType": "Township",
    "State": "OH",
    "ZipCode": 44440,
    "Latitude": 41.148618,
    "Longitude": -80.76715
  },
  {
    "Id": "f151af7e-46ef-4ec0-9067-bbd5c53458f0",
    "Department": "Weathersfield Township Volunteer Fire Department",
    "Station": "Station 40 - McKinley Heights",
    "Address": "2229 Gardenland Avenue",
    "City": "Niles",
    "JurisdictionType": "Township",
    "State": "OH",
    "ZipCode": 44446,
    "Latitude": 41.182973,
    "Longitude": -80.717062
  },
  {
    "Id": "317b3f2d-7865-44a2-ad9c-40e521ae752c",
    "Department": "Weathersfield Township Volunteer Fire Department",
    "Station": "Station 42 - West Park",
    "Address": "1382 West Park Avenue",
    "City": "Niles",
    "JurisdictionType": "Township",
    "State": "OH",
    "ZipCode": 44446,
    "Latitude": 41.181236,
    "Longitude": -80.793163
  },
  {
    "Id": "81a74f9d-b1b6-4782-a095-1a7f8d7fa30f",
    "Department": "910th Airlift Wing Fire Department",
    "Station": "YARS Base",
    "Address": "3976 King Graves Road",
    "City": "Vienna",
    "JurisdictionType": "Federal/Military",
    "State": "OH",
    "ZipCode": 44473,
    "Latitude": 41.272061,
    "Longitude": -80.676419
  }
]